{"builtAt":"2026-06-27T03:03:23.476578+00:00","lines":[{"id":"1","name":"Ligne 1 - Verte","mode":"metro","color":"#00B300","shapes":[{"headsign":"Station Honor\u00e9-Beaugrand","points":[[45.446466,-73.603118],[45.459441,-73.572021],[45.478465,-73.569336],[45.49557,-73.57931],[45.50822,-73.568433],[45.518831,-73.555837],[45.541717,-73.554192],[45.560687,-73.54753],[45.582736,-73.543133],[45.596572,-73.535376]]},{"headsign":"Station Angrignon","points":[[45.596572,-73.535376],[45.576843,-73.54671],[45.553688,-73.551757],[45.533504,-73.552196],[45.515226,-73.561082],[45.504064,-73.571586],[45.490068,-73.585812],[45.471063,-73.566267],[45.45701,-73.581691],[45.446466,-73.603118]]}],"stops":[{"id":"43","name":"Station Angrignon","lat":45.446466,"lng":-73.603118,"code":"10118","wheelchair":true},{"id":"22","name":"Station Assomption","lat":45.569257,"lng":-73.547566,"code":"10162","wheelchair":false},{"id":"35","name":"Station Atwater","lat":45.489796,"lng":-73.586078,"code":"10134","wheelchair":false},{"id":"29","name":"Station Beaudry","lat":45.519488,"lng":-73.557307,"code":"10148","wheelchair":false},{"id":"9999111","name":"Station Berri-UQAM","lat":45.515317,"lng":-73.56108,"code":"10146","wheelchair":true},{"id":"21","name":"Station Cadillac","lat":45.576843,"lng":-73.54671,"code":"10164","wheelchair":false},{"id":"37","name":"Station Charlevoix","lat":45.478465,"lng":-73.569336,"code":"10130","wheelchair":false},{"id":"39","name":"Station De l'\u00c9glise","lat":45.461894,"lng":-73.567074,"code":"10126","wheelchair":false},{"id":"27","name":"Station Frontenac","lat":45.533526,"lng":-73.552216,"code":"10152","wheelchair":false},{"id":"34","name":"Station Guy-Concordia","lat":45.49557,"lng":-73.57931,"code":"10136","wheelchair":false},{"id":"18","name":"Station Honor\u00e9-Beaugrand","lat":45.596572,"lng":-73.535357,"code":"10170","wheelchair":true},{"id":"41","name":"Station Jolicoeur","lat":45.45703,"lng":-73.581946,"code":"10122","wheelchair":true},{"id":"25","name":"Station Joliette","lat":45.54684,"lng":-73.551418,"code":"10156","wheelchair":false},{"id":"38","name":"Station LaSalle","lat":45.471063,"lng":-73.566267,"code":"10128","wheelchair":false},{"id":"20","name":"Station Langelier","lat":45.582745,"lng":-73.543148,"code":"10166","wheelchair":false},{"id":"36","name":"Station Lionel-Groulx","lat":45.482509,"lng":-73.58018,"code":"10132","wheelchair":true},{"id":"32","name":"Station McGill","lat":45.504096,"lng":-73.571657,"code":"10140","wheelchair":true},{"id":"42","name":"Station Monk","lat":45.451158,"lng":-73.593242,"code":"10120","wheelchair":false},{"id":"28","name":"Station Papineau","lat":45.524115,"lng":-73.552964,"code":"10150","wheelchair":false},{"id":"33","name":"Station Peel","lat":45.500879,"lng":-73.574715,"code":"10138","wheelchair":false},{"id":"24","name":"Station Pie-IX","lat":45.55371,"lng":-73.551701,"code":"10158","wheelchair":true},{"id":"31","name":"Station Place-des-Arts","lat":45.50822,"lng":-73.568433,"code":"10142","wheelchair":true},{"id":"26","name":"Station Pr\u00e9fontaine","lat":45.541717,"lng":-73.554192,"code":"10154","wheelchair":true},{"id":"19","name":"Station Radisson","lat":45.589414,"lng":-73.539224,"code":"10168","wheelchair":false},{"id":"30","name":"Station Saint-Laurent","lat":45.511081,"lng":-73.564963,"code":"10144","wheelchair":false},{"id":"40","name":"Station Verdun","lat":45.459417,"lng":-73.572272,"code":"10124","wheelchair":false},{"id":"23","name":"Station Viau","lat":45.560878,"lng":-73.547427,"code":"10160","wheelchair":true}],"avgHeadwayMin":1.0},{"id":"2","name":"Ligne 2 - Orange","mode":"metro","color":"#D95700","shapes":[{"headsign":"Station C\u00f4te-Vertu","points":[[45.558436,-73.722459],[45.555277,-73.668172],[45.543191,-73.628765],[45.531733,-73.59778],[45.51906,-73.569217],[45.506348,-73.559548],[45.494745,-73.571074],[45.47732,-73.586629],[45.485433,-73.62773],[45.494643,-73.652828],[45.514237,-73.682757]]},{"headsign":"Station Montmorency -Zone B","points":[[45.514237,-73.682757],[45.494643,-73.652828],[45.485433,-73.62773],[45.47732,-73.586629],[45.494745,-73.571074],[45.506348,-73.559548],[45.51906,-73.569217],[45.531733,-73.59778],[45.543191,-73.628765],[45.555277,-73.668172],[45.558436,-73.722459]]},{"headsign":"Station C\u00f4te-Vertu","points":[[45.555277,-73.668172],[45.543191,-73.628765],[45.531733,-73.59778],[45.51906,-73.569217],[45.506348,-73.559548],[45.494745,-73.571074],[45.47732,-73.586629],[45.485433,-73.62773],[45.494643,-73.652828],[45.514237,-73.682757]]},{"headsign":"Station Henri-Bourassa","points":[[45.514237,-73.682757],[45.494643,-73.652828],[45.485433,-73.62773],[45.47732,-73.586629],[45.494745,-73.571074],[45.506348,-73.559548],[45.51906,-73.569217],[45.531733,-73.59778],[45.543191,-73.628765],[45.555277,-73.668172]]}],"stops":[{"id":"6","name":"Station Beaubien","lat":45.535078,"lng":-73.605037,"code":"10270","wheelchair":false},{"id":"9999112","name":"Station Berri-UQAM","lat":45.515242,"lng":-73.561025,"code":"10146","wheelchair":true},{"id":"15","name":"Station Bonaventure","lat":45.49813,"lng":-73.567293,"code":"10252","wheelchair":true},{"id":"66","name":"Station Cartier -Zone B","lat":45.560043,"lng":-73.682229,"code":"10282","wheelchair":true},{"id":"12","name":"Station Champ-de-Mars","lat":45.510064,"lng":-73.556445,"code":"10258","wheelchair":true},{"id":"3","name":"Station Cr\u00e9mazie","lat":45.545999,"lng":-73.638842,"code":"10276","wheelchair":false},{"id":"50","name":"Station C\u00f4te-Sainte-Catherine","lat":45.492344,"lng":-73.633104,"code":"10234","wheelchair":false},{"id":"65","name":"Station C\u00f4te-Vertu","lat":45.514254,"lng":-73.682752,"code":"10222","wheelchair":true},{"id":"67","name":"Station De la Concorde -Zone B","lat":45.560686,"lng":-73.709391,"code":"10286","wheelchair":true},{"id":"53","name":"Station De la Savane","lat":45.500087,"lng":-73.66158,"code":"10228","wheelchair":false},{"id":"54","name":"Station Du Coll\u00e8ge","lat":45.509168,"lng":-73.674705,"code":"10224","wheelchair":true},{"id":"17","name":"Station Georges-Vanier","lat":45.488941,"lng":-73.576457,"code":"10248","wheelchair":false},{"id":"1","name":"Station Henri-Bourassa","lat":45.554441,"lng":-73.668474,"code":"10280","wheelchair":true},{"id":"4","name":"Station Jarry","lat":45.543156,"lng":-73.628721,"code":"10274","wheelchair":false},{"id":"9999052","name":"Station Jean-Talon","lat":45.538911,"lng":-73.613941,"code":"10272","wheelchair":true},{"id":"8","name":"Station Laurier","lat":45.527436,"lng":-73.587002,"code":"10266","wheelchair":false},{"id":"36","name":"Station Lionel-Groulx","lat":45.482509,"lng":-73.58018,"code":"10132","wheelchair":true},{"id":"16","name":"Station Lucien-L'Allier","lat":45.494765,"lng":-73.571103,"code":"10250","wheelchair":false},{"id":"9","name":"Station Mont-Royal","lat":45.524815,"lng":-73.581707,"code":"10264","wheelchair":true},{"id":"68","name":"Station Montmorency -Zone B","lat":45.558459,"lng":-73.722422,"code":"10288","wheelchair":true},{"id":"52","name":"Station Namur","lat":45.494688,"lng":-73.652778,"code":"10230","wheelchair":false},{"id":"46","name":"Station Place-Saint-Henri","lat":45.47732,"lng":-73.586629,"code":"10244","wheelchair":false},{"id":"13","name":"Station Place-d'Armes","lat":45.506348,"lng":-73.559548,"code":"10256","wheelchair":true},{"id":"51","name":"Station Plamondon","lat":45.494656,"lng":-73.638269,"code":"10232","wheelchair":false},{"id":"7","name":"Station Rosemont","lat":45.531736,"lng":-73.597696,"code":"10268","wheelchair":true},{"id":"2","name":"Station Sauv\u00e9","lat":45.550895,"lng":-73.656102,"code":"10278","wheelchair":false},{"id":"10","name":"Station Sherbrooke","lat":45.51906,"lng":-73.569217,"code":"10262","wheelchair":false},{"id":"9999492","name":"Station Snowdon","lat":45.485632,"lng":-73.628104,"code":"10236","wheelchair":true},{"id":"14","name":"Station Square-Victoria\u2013OACI","lat":45.50191,"lng":-73.5631,"code":"10254","wheelchair":false},{"id":"47","name":"Station Vend\u00f4me","lat":45.473908,"lng":-73.603762,"code":"10242","wheelchair":true},{"id":"48","name":"Station Villa-Maria","lat":45.47975,"lng":-73.619761,"code":"10238","wheelchair":true}],"avgHeadwayMin":1.0},{"id":"4","name":"Ligne 4 - Jaune","mode":"metro","color":"#FFD900","shapes":[{"headsign":"Station Longueuil-Universit\u00e9 de Sherbrooke -Zone B","points":[[45.515191,-73.561013],[45.52489,-73.522098]]},{"headsign":"Station Berri-UQAM","points":[[45.52489,-73.522098],[45.515191,-73.561013]]}],"stops":[{"id":"9999114","name":"Station Berri-UQAM","lat":45.514375,"lng":-73.561912,"code":"10146","wheelchair":false},{"id":"45","name":"Station Jean-Drapeau","lat":45.512454,"lng":-73.533128,"code":"10452","wheelchair":false},{"id":"44","name":"Station Longueuil-Universit\u00e9 de Sherbrooke -Zone B","lat":45.52463,"lng":-73.521976,"code":"10454","wheelchair":false}],"avgHeadwayMin":2.0},{"id":"5","name":"Ligne 5 - Bleue","mode":"metro","color":"#0095E6","shapes":[{"headsign":"Station Saint-Michel","points":[[45.485403,-73.627757],[45.50992,-73.612858],[45.530177,-73.624559],[45.546753,-73.608106],[45.55956,-73.600002]]},{"headsign":"Station Snowdon","points":[[45.55956,-73.600002],[45.539152,-73.613856],[45.523458,-73.623257],[45.503188,-73.617699],[45.485403,-73.627757]]}],"stops":[{"id":"59","name":"Station Acadie","lat":45.523383,"lng":-73.623285,"code":"10542","wheelchair":false},{"id":"55","name":"Station C\u00f4te-des-Neiges","lat":45.496778,"lng":-73.623389,"code":"10534","wheelchair":false},{"id":"63","name":"Station D'Iberville","lat":45.553578,"lng":-73.601986,"code":"10554","wheelchair":false},{"id":"61","name":"Station De Castelnau","lat":45.535469,"lng":-73.619874,"code":"10546","wheelchair":false},{"id":"62","name":"Station Fabre","lat":45.546738,"lng":-73.608152,"code":"10552","wheelchair":false},{"id":"9999055","name":"Station Jean-Talon","lat":45.539201,"lng":-73.615064,"code":"10272","wheelchair":true},{"id":"58","name":"Station Outremont","lat":45.520281,"lng":-73.614856,"code":"10540","wheelchair":false},{"id":"60","name":"Station Parc","lat":45.530177,"lng":-73.624559,"code":"10544","wheelchair":false},{"id":"64","name":"Station Saint-Michel","lat":45.559573,"lng":-73.600023,"code":"10556","wheelchair":false},{"id":"9999495","name":"Station Snowdon","lat":45.48572,"lng":-73.628552,"code":"10236","wheelchair":true},{"id":"56","name":"Station Universit\u00e9-de-Montr\u00e9al","lat":45.503318,"lng":-73.617641,"code":"10536","wheelchair":false},{"id":"57","name":"Station \u00c9douard-Montpetit","lat":45.509908,"lng":-73.61281,"code":"10538","wheelchair":false}],"avgHeadwayMin":1.0}]}