{"id":"135","name":"De l'Esplanade","mode":"bus","color":"#009EE0","shapes":[{"headsign":"Sud","points":[[45.527958,-73.692368],[45.52824,-73.692459],[45.52846,-73.691864],[45.528631,-73.689809],[45.528409,-73.688292],[45.528593,-73.686849],[45.529473,-73.684362],[45.529955,-73.683626],[45.530275,-73.683315],[45.533267,-73.68139],[45.534312,-73.680727],[45.537906,-73.67846],[45.541428,-73.676255],[45.543895,-73.674741],[45.545598,-73.67363],[45.54749,-73.672458],[45.54939,-73.671337],[45.550148,-73.670385],[45.548683,-73.66561],[45.547007,-73.660057],[45.546166,-73.657188],[45.545145,-73.654999],[45.540186,-73.657897],[45.538566,-73.658805],[45.538353,-73.658109],[45.537111,-73.653905],[45.535975,-73.649984],[45.535814,-73.649033],[45.53587,-73.648802],[45.536314,-73.648214],[45.535568,-73.646022],[45.53543,-73.646131],[45.535355,-73.646136],[45.535301,-73.646065],[45.535175,-73.64542],[45.535186,-73.645285],[45.535229,-73.645193],[45.535272,-73.645148],[45.535582,-73.645046],[45.536053,-73.642494],[45.534924,-73.638618],[45.537034,-73.637382],[45.537202,-73.637285],[45.537767,-73.639225],[45.537675,-73.639279],[45.535626,-73.640441],[45.53665,-73.644463],[45.538647,-73.643158],[45.539405,-73.642649],[45.540124,-73.642222],[45.540904,-73.641729],[45.542197,-73.640902],[45.543491,-73.640011],[45.545266,-73.638543],[45.545641,-73.638215]]},{"headsign":"Nord","points":[[45.545689,-73.637556],[45.543672,-73.635836],[45.541853,-73.636907],[45.540728,-73.63757],[45.540649,-73.63758],[45.538026,-73.631935],[45.535959,-73.633071],[45.536863,-73.636238],[45.537118,-73.637102],[45.537745,-73.639216],[45.537675,-73.639279],[45.535626,-73.640441],[45.53665,-73.644463],[45.538784,-73.64307],[45.539819,-73.642407],[45.540459,-73.642012],[45.541203,-73.641577],[45.54226,-73.641039],[45.542376,-73.641375],[45.541269,-73.642135],[45.540868,-73.642442],[45.539156,-73.643551],[45.537437,-73.644635],[45.535678,-73.645887],[45.536438,-73.648506],[45.537326,-73.651608],[45.537126,-73.653788],[45.537678,-73.655672],[45.538539,-73.658573],[45.540173,-73.657849],[45.54512,-73.654959],[45.545526,-73.654749],[45.546905,-73.659515],[45.548527,-73.664862],[45.549664,-73.668643],[45.55039,-73.67099],[45.54988,-73.671332],[45.548195,-73.672351],[45.547309,-73.672892],[45.545682,-73.673893],[45.543982,-73.675001],[45.541503,-73.676531],[45.536397,-73.679716],[45.53427,-73.681054],[45.530286,-73.683559],[45.529803,-73.684154],[45.528949,-73.686369],[45.528562,-73.687891],[45.528748,-73.689317],[45.528671,-73.691636],[45.528424,-73.69246]]}],"stops":[{"id":"50270","name":"Coll\u00e8ge de Bois-de-Boulogne","lat":45.538639,"lng":-73.677965,"code":"50270","wheelchair":true},{"id":"50665","name":"Cr\u00e9mazie / Clark","lat":45.54089,"lng":-73.641686,"code":"50665","wheelchair":true},{"id":"50664","name":"Cr\u00e9mazie / Clark","lat":45.541009,"lng":-73.6424,"code":"50664","wheelchair":true},{"id":"60249","name":"Cr\u00e9mazie / de Reims","lat":45.540114,"lng":-73.642189,"code":"60249","wheelchair":true},{"id":"50681","name":"Cr\u00e9mazie / de Reims","lat":45.539811,"lng":-73.64238,"code":"50681","wheelchair":true},{"id":"50657","name":"Cr\u00e9mazie / de l'Esplanade","lat":45.53864,"lng":-73.643134,"code":"50657","wheelchair":true},{"id":"55997","name":"Dutrisac / Henri-Bourassa","lat":45.527969,"lng":-73.692354,"code":"55997","wheelchair":true},{"id":"60248","name":"Guizot / de l'Esplanade","lat":45.53702,"lng":-73.637333,"code":"60248","wheelchair":true},{"id":"62373","name":"Henri-Bourassa / de l'Esplanade","lat":45.547323,"lng":-73.672934,"code":"62373","wheelchair":true},{"id":"62374","name":"Henri-Bourassa / du Bois-de-Boulogne","lat":45.537554,"lng":-73.679091,"code":"62374","wheelchair":true},{"id":"50449","name":"Meilleur / Chabanel","lat":45.5377,"lng":-73.655658,"code":"50449","wheelchair":true},{"id":"50451","name":"Meilleur / No 9200","lat":45.537088,"lng":-73.653918,"code":"50451","wheelchair":true},{"id":"50498","name":"Meilleur / No 9200","lat":45.537161,"lng":-73.653765,"code":"50498","wheelchair":true},{"id":"50405","name":"Meilleur / de Louvain","lat":45.538289,"lng":-73.658149,"code":"50405","wheelchair":true},{"id":"54122","name":"Meilleur / de Louvain","lat":45.538545,"lng":-73.658571,"code":"54122","wheelchair":true},{"id":"50298","name":"Saint-Laurent / Henri-Bourassa","lat":45.55009,"lng":-73.670421,"code":"50298","wheelchair":true},{"id":"50392","name":"Saint-Laurent / Sauv\u00e9","lat":45.546953,"lng":-73.660089,"code":"50392","wheelchair":true},{"id":"50390","name":"Saint-Laurent / Sauv\u00e9","lat":45.546952,"lng":-73.659487,"code":"50390","wheelchair":true},{"id":"60250","name":"Station Cr\u00e9mazie Sud (Berri / Cr\u00e9mazie)","lat":45.545658,"lng":-73.637573,"code":"60250","wheelchair":true},{"id":"50769","name":"Station Cr\u00e9mazie Sud (Cr\u00e9mazie / Berri)","lat":45.545619,"lng":-73.638165,"code":"50769","wheelchair":true},{"id":"55996","name":"Station Du Ruisseau (Henri-Bourassa / Dutrisac)","lat":45.528438,"lng":-73.692469,"code":"55996","wheelchair":true},{"id":"50715","name":"de Li\u00e8ge / Jeanne-Mance","lat":45.535636,"lng":-73.640476,"code":"50715","wheelchair":true},{"id":"50740","name":"de Li\u00e8ge / de l'Esplanade","lat":45.537408,"lng":-73.6395,"code":"50740","wheelchair":true},{"id":"50458","name":"de Louvain / Saint-Laurent","lat":45.545161,"lng":-73.655051,"code":"50458","wheelchair":true},{"id":"50456","name":"de Louvain / Saint-Laurent","lat":45.545101,"lng":-73.654892,"code":"50456","wheelchair":true},{"id":"50894","name":"de l'Esplanade / Guizot","lat":45.536617,"lng":-73.635172,"code":"50894","wheelchair":true},{"id":"50554","name":"du Parc / De Beauharnois","lat":45.536282,"lng":-73.648232,"code":"50554","wheelchair":true},{"id":"50553","name":"du Parc / De Beauharnois","lat":45.536422,"lng":-73.648345,"code":"50553","wheelchair":true}],"avgHeadwayMin":31.0}