{"id":"176","name":"Berlioz","mode":"bus","color":"#009EE0","shapes":[{"headsign":"Nord","points":[[45.44801,-73.554872],[45.448658,-73.553934],[45.448843,-73.553282],[45.448862,-73.552321],[45.449215,-73.551037],[45.449528,-73.550529],[45.450356,-73.549928],[45.451112,-73.549289],[45.452014,-73.548829],[45.452311,-73.548369],[45.452717,-73.547526],[45.453476,-73.546757],[45.454373,-73.545774],[45.455805,-73.543731],[45.456396,-73.543066],[45.457014,-73.542713],[45.458006,-73.542856],[45.458624,-73.543322],[45.459902,-73.543753],[45.460483,-73.543198],[45.461162,-73.542876],[45.462897,-73.542289],[45.463532,-73.541833],[45.463979,-73.541326],[45.465062,-73.53926],[45.465401,-73.538616],[45.465703,-73.538254],[45.46625,-73.537982],[45.466724,-73.538034],[45.467232,-73.537809],[45.467713,-73.536268],[45.468238,-73.535445],[45.468366,-73.535289],[45.469064,-73.534852],[45.469616,-73.534685],[45.469646,-73.534901],[45.46969,-73.536011],[45.469729,-73.536172]]},{"headsign":"Sud","points":[[45.469814,-73.537228],[45.46976,-73.537367],[45.469569,-73.537364],[45.469618,-73.536344],[45.469592,-73.535069],[45.469263,-73.535016],[45.468387,-73.535613],[45.468173,-73.535866],[45.467673,-73.536894],[45.467294,-73.538364],[45.467137,-73.538289],[45.466555,-73.538045],[45.466103,-73.53807],[45.465623,-73.538399],[45.465371,-73.538757],[45.46424,-73.540937],[45.463823,-73.541593],[45.463389,-73.542017],[45.463093,-73.542226],[45.461295,-73.542884],[45.460741,-73.543078],[45.460089,-73.543584],[45.459469,-73.544466],[45.459333,-73.544624],[45.458479,-73.543551],[45.457626,-73.543045],[45.456791,-73.543107],[45.455926,-73.543957],[45.454575,-73.545822],[45.453601,-73.546949],[45.452631,-73.548177],[45.452348,-73.548693],[45.451477,-73.54912],[45.450741,-73.549661],[45.450112,-73.550153],[45.449442,-73.550684],[45.449166,-73.551327],[45.448879,-73.552508],[45.448786,-73.553745],[45.448306,-73.554441],[45.448109,-73.55478]]}],"stops":[{"id":"56664","name":"Berlioz / Landreville","lat":45.461305,"lng":-73.54294,"code":"56664","wheelchair":true},{"id":"62078","name":"Berlioz / O'Reilly","lat":45.462716,"lng":-73.542303,"code":"62078","wheelchair":true},{"id":"56666","name":"Berlioz / Place de la Fontaine","lat":45.463113,"lng":-73.542293,"code":"56666","wheelchair":true},{"id":"56665","name":"Berlioz / Place du Soleil","lat":45.464103,"lng":-73.541297,"code":"56665","wheelchair":true},{"id":"62357","name":"Berlioz / Terry-Fox","lat":45.465033,"lng":-73.539227,"code":"62357","wheelchair":true},{"id":"56691","name":"Berlioz / Terry-Fox","lat":45.465403,"lng":-73.53879,"code":"56691","wheelchair":true},{"id":"56662","name":"Berlioz / de l'\u00cele-des-Soeurs","lat":45.459712,"lng":-73.544174,"code":"56662","wheelchair":true},{"id":"56695","name":"Ren\u00e9-L\u00e9vesque / Berlioz","lat":45.4672,"lng":-73.537794,"code":"56695","wheelchair":true},{"id":"56702","name":"Ren\u00e9-L\u00e9vesque / Levert","lat":45.468277,"lng":-73.535333,"code":"56702","wheelchair":false},{"id":"61671","name":"Ren\u00e9-L\u00e9vesque / Levert","lat":45.468292,"lng":-73.53582,"code":"61671","wheelchair":true},{"id":"62202","name":"Station \u00cele-des-Soeurs","lat":45.469756,"lng":-73.536156,"code":"62202","wheelchair":true},{"id":"62065","name":"Station \u00cele-des-Soeurs","lat":45.46984,"lng":-73.537235,"code":"62065","wheelchair":true},{"id":"56661","name":"de l'\u00cele-des-Soeurs / Berlioz","lat":45.459377,"lng":-73.544266,"code":"56661","wheelchair":true},{"id":"56700","name":"de l'\u00cele-des-Soeurs / Berlioz","lat":45.458786,"lng":-73.544023,"code":"56700","wheelchair":true},{"id":"56663","name":"de l'\u00cele-des-Soeurs / Darwin","lat":45.45638,"lng":-73.543031,"code":"56663","wheelchair":true},{"id":"56654","name":"de l'\u00cele-des-Soeurs / De Gasp\u00e9","lat":45.453309,"lng":-73.546894,"code":"56654","wheelchair":true},{"id":"56653","name":"de l'\u00cele-des-Soeurs / De Gasp\u00e9","lat":45.453942,"lng":-73.546677,"code":"56653","wheelchair":true},{"id":"56660","name":"de l'\u00cele-des-Soeurs / Elgar","lat":45.455884,"lng":-73.544091,"code":"56660","wheelchair":true},{"id":"56656","name":"de l'\u00cele-des-Soeurs / Fran\u00e7ois","lat":45.454346,"lng":-73.545724,"code":"56656","wheelchair":true},{"id":"60400","name":"de l'\u00cele-des-Soeurs / Hall","lat":45.452648,"lng":-73.548194,"code":"60400","wheelchair":true},{"id":"60700","name":"de la Pointe-Sud / No 250","lat":45.447973,"lng":-73.55483,"code":"60700","wheelchair":true},{"id":"60699","name":"de la Pointe-Sud / No 250","lat":45.448122,"lng":-73.554794,"code":"60699","wheelchair":false},{"id":"60696","name":"de la Pointe-Sud / de l'Or\u00e9e-du-Bois","lat":45.450763,"lng":-73.549713,"code":"60696","wheelchair":true},{"id":"60693","name":"de la Pointe-Sud / des Parulines","lat":45.44884,"lng":-73.552496,"code":"60693","wheelchair":true},{"id":"60697","name":"de la Pointe-Sud / des Parulines","lat":45.448991,"lng":-73.552146,"code":"60697","wheelchair":true},{"id":"60694","name":"de la Pointe-Sud / des Sommets","lat":45.450435,"lng":-73.549835,"code":"60694","wheelchair":true}],"avgHeadwayMin":6.0}