{"id":"214","name":"Stuart-Graham / YUL A\u00e9roport","mode":"bus","color":"#009EE0","shapes":[{"headsign":"Est","points":[[45.457475,-73.760922],[45.456846,-73.76031],[45.455994,-73.762697],[45.455867,-73.762991],[45.455695,-73.763094],[45.453303,-73.762145],[45.453262,-73.762006],[45.453277,-73.761853],[45.451071,-73.761094],[45.450898,-73.760472],[45.451323,-73.757716],[45.450263,-73.757431],[45.44992,-73.757359],[45.449691,-73.757257],[45.449605,-73.753466],[45.449608,-73.751753],[45.4499,-73.75175],[45.450347,-73.751841],[45.45111,-73.752098],[45.452881,-73.752554],[45.454516,-73.753009],[45.454791,-73.752969],[45.454849,-73.752387],[45.454841,-73.751927],[45.454857,-73.751831],[45.455269,-73.75179],[45.455696,-73.751795],[45.455749,-73.751872],[45.455749,-73.751991],[45.45553,-73.752263],[45.455316,-73.752314],[45.454865,-73.752788],[45.454851,-73.752958],[45.454687,-73.753085],[45.453773,-73.752915],[45.452432,-73.752499],[45.450604,-73.752036],[45.45035,-73.752043],[45.449872,-73.751922],[45.449618,-73.751809],[45.449637,-73.751174],[45.449985,-73.748424],[45.45016,-73.746449],[45.450146,-73.745196],[45.449726,-73.745169],[45.449694,-73.743487],[45.44945,-73.743247]]},{"headsign":"Ouest","points":[[45.44945,-73.743247],[45.449338,-73.743043],[45.449459,-73.742843],[45.449685,-73.742992],[45.449754,-73.744606],[45.450293,-73.745145],[45.450321,-73.745914],[45.450264,-73.748],[45.450062,-73.749741],[45.449853,-73.75178],[45.449913,-73.751748],[45.450764,-73.752007],[45.45111,-73.752098],[45.452881,-73.752554],[45.454516,-73.753009],[45.454791,-73.752969],[45.454849,-73.752387],[45.454841,-73.751927],[45.454857,-73.751831],[45.455246,-73.751791],[45.455688,-73.751793],[45.455744,-73.751863],[45.45575,-73.751984],[45.455698,-73.752092],[45.455382,-73.752314],[45.454884,-73.75239],[45.454854,-73.752951],[45.45479,-73.753047],[45.453998,-73.752941],[45.452504,-73.752525],[45.451013,-73.752185],[45.450521,-73.752417],[45.450221,-73.753179],[45.450251,-73.75578],[45.450522,-73.757004],[45.451339,-73.757403],[45.451363,-73.75755],[45.45127,-73.758315],[45.4511,-73.761064],[45.4533,-73.761806],[45.453297,-73.761994],[45.455494,-73.763005],[45.45596,-73.762676],[45.456359,-73.759903],[45.457036,-73.760421],[45.457595,-73.760892],[45.457772,-73.760998],[45.457788,-73.761051],[45.45777,-73.761132],[45.457733,-73.761172],[45.457524,-73.761048],[45.457475,-73.760922]]}],"stops":[{"id":"57516","name":"Albert-de-Niverville / Arthur-Fecteau","lat":45.450774,"lng":-73.751928,"code":"57516","wheelchair":true},{"id":"57515","name":"Albert-de-Niverville / Rodolphe-Pag\u00e9","lat":45.450592,"lng":-73.752143,"code":"57515","wheelchair":true},{"id":"62625","name":"Cardinal / Arthur-Fecteau","lat":45.450144,"lng":-73.746401,"code":"62625","wheelchair":true},{"id":"62626","name":"Cardinal / Arthur-Fecteau","lat":45.45033,"lng":-73.745912,"code":"62626","wheelchair":true},{"id":"57568","name":"Gare Dorval","lat":45.449422,"lng":-73.743282,"code":"57568","wheelchair":true},{"id":"62705","name":"Rodolphe-Pag\u00e9 / Stuart-Graham","lat":45.45028,"lng":-73.754443,"code":"62705","wheelchair":false},{"id":"57578","name":"Stuart-Graham / No 751","lat":45.457455,"lng":-73.760963,"code":"57578","wheelchair":true},{"id":"61688","name":"Stuart-Graham / Rodolphe-Pag\u00e9","lat":45.451173,"lng":-73.758285,"code":"61688","wheelchair":false},{"id":"61684","name":"Stuart-Graham / Rodolphe-Pag\u00e9","lat":45.451348,"lng":-73.758337,"code":"61684","wheelchair":false},{"id":"61737","name":"YUL A\u00e9roport Montr\u00e9al-Trudeau","lat":45.455269,"lng":-73.751746,"code":"61737","wheelchair":true},{"id":"61736","name":"YUL A\u00e9roport Montr\u00e9al-Trudeau","lat":45.455376,"lng":-73.751779,"code":"61736","wheelchair":true}],"avgHeadwayMin":3.0}