{"id":"26","name":"Mercier-Est","mode":"bus","color":"#009EE0","shapes":[{"headsign":"Ouest","points":[[45.613819,-73.540503],[45.613308,-73.537699],[45.613281,-73.537389],[45.613736,-73.536178],[45.612856,-73.531574],[45.612443,-73.529279],[45.611823,-73.526149],[45.611814,-73.525966],[45.61247,-73.525608],[45.613772,-73.524905],[45.613929,-73.524891],[45.61284,-73.518769],[45.612192,-73.514991],[45.611969,-73.5145],[45.610747,-73.515097],[45.609988,-73.515461],[45.609107,-73.515898],[45.607964,-73.516442],[45.607152,-73.516819],[45.606396,-73.517152],[45.604896,-73.517855],[45.604319,-73.518205],[45.603466,-73.518662],[45.602161,-73.519457],[45.602099,-73.52175],[45.602697,-73.523808],[45.603312,-73.525875],[45.603965,-73.528066],[45.604558,-73.530106],[45.604588,-73.53029],[45.603256,-73.531084],[45.601124,-73.532389],[45.600304,-73.532877],[45.598927,-73.53371],[45.59678,-73.534975],[45.594972,-73.536075],[45.594707,-73.536232],[45.593554,-73.536924],[45.590889,-73.538498],[45.589899,-73.539049],[45.589089,-73.540085]]},{"headsign":"Est","points":[[45.589089,-73.540086],[45.589266,-73.540541],[45.589372,-73.540611],[45.589675,-73.540425],[45.589873,-73.539024],[45.589843,-73.538824],[45.591165,-73.538018],[45.593182,-73.536853],[45.594181,-73.536264],[45.59521,-73.535668],[45.596575,-73.534855],[45.597079,-73.534548],[45.599527,-73.533101],[45.600949,-73.53223],[45.60307,-73.530952],[45.604515,-73.530089],[45.603975,-73.528234],[45.60332,-73.526033],[45.602153,-73.522065],[45.601543,-73.520009],[45.601492,-73.519771],[45.602788,-73.518989],[45.604059,-73.51816],[45.604858,-73.517682],[45.606239,-73.517029],[45.607109,-73.51663],[45.607856,-73.516284],[45.608874,-73.515805],[45.609962,-73.515285],[45.610619,-73.514965],[45.611883,-73.514347],[45.612109,-73.514323],[45.612498,-73.516454],[45.613235,-73.520647],[45.61399,-73.52494],[45.613217,-73.52545],[45.612515,-73.525821],[45.612438,-73.529064],[45.612891,-73.53156],[45.613748,-73.536042],[45.61394,-73.537184],[45.613307,-73.537433],[45.613989,-73.541223],[45.614258,-73.541045],[45.614313,-73.541062],[45.61434,-73.541157],[45.614297,-73.541214],[45.613984,-73.541291],[45.613819,-73.540504]]},{"headsign":"Ouest destination Station Honor\u00e9-Beaugrand","points":[[45.613819,-73.540503],[45.613308,-73.537699],[45.613281,-73.537389],[45.613736,-73.536178],[45.612856,-73.531574],[45.612443,-73.529279],[45.611831,-73.52619],[45.610896,-73.526692],[45.609699,-73.527345],[45.608349,-73.528076],[45.606559,-73.529112],[45.604588,-73.53029],[45.603256,-73.531084],[45.601124,-73.532389],[45.600304,-73.532877],[45.598927,-73.53371],[45.59678,-73.534975]]}],"stops":[{"id":"61221","name":"Anne-Courtemanche / Claude-Masson","lat":45.613371,"lng":-73.537487,"code":"61221","wheelchair":true},{"id":"61223","name":"Claude-Masson / Anne-Courtemanche","lat":45.613775,"lng":-73.540519,"code":"61223","wheelchair":true},{"id":"61224","name":"Claude-Masson / Anne-Courtemanche","lat":45.613228,"lng":-73.537721,"code":"61224","wheelchair":true},{"id":"62421","name":"De Contrecoeur / Jean-Pierre-Ronfard","lat":45.613195,"lng":-73.533746,"code":"62421","wheelchair":true},{"id":"62422","name":"De Contrecoeur / Jean-Pierre-Ronfard","lat":45.613306,"lng":-73.533431,"code":"62422","wheelchair":true},{"id":"61761","name":"De Contrecoeur / Marie-Ange-Bouchard","lat":45.612435,"lng":-73.529441,"code":"61761","wheelchair":true},{"id":"61762","name":"De Contrecoeur / Marie-Ange-Bouchard","lat":45.612494,"lng":-73.529041,"code":"61762","wheelchair":true},{"id":"61225","name":"De Contrecoeur / Rousseau","lat":45.613724,"lng":-73.536352,"code":"61225","wheelchair":true},{"id":"61218","name":"De Contrecoeur / Rousseau","lat":45.61379,"lng":-73.536025,"code":"61218","wheelchair":true},{"id":"61228","name":"De Contrecoeur / Sherbrooke","lat":45.611905,"lng":-73.526725,"code":"61228","wheelchair":true},{"id":"61216","name":"De Contrecoeur / Sherbrooke","lat":45.612001,"lng":-73.526538,"code":"61216","wheelchair":true},{"id":"53337","name":"Des Ormeaux / De Teck","lat":45.603953,"lng":-73.527909,"code":"53337","wheelchair":true},{"id":"53338","name":"Des Ormeaux / De Teck","lat":45.603935,"lng":-73.528258,"code":"53338","wheelchair":true},{"id":"53387","name":"Des Ormeaux / Hochelaga","lat":45.601507,"lng":-73.520031,"code":"53387","wheelchair":true},{"id":"53372","name":"Des Ormeaux / Pierre-De Coubertin","lat":45.602133,"lng":-73.521728,"code":"53372","wheelchair":true},{"id":"53373","name":"Des Ormeaux / Pierre-De Coubertin","lat":45.602118,"lng":-73.522086,"code":"53373","wheelchair":true},{"id":"53362","name":"Des Ormeaux / Sainte-Claire","lat":45.602738,"lng":-73.523782,"code":"53362","wheelchair":true},{"id":"53363","name":"Des Ormeaux / Sainte-Claire","lat":45.602724,"lng":-73.524148,"code":"53363","wheelchair":true},{"id":"53311","name":"Des Ormeaux / Sherbrooke","lat":45.604484,"lng":-73.529708,"code":"53311","wheelchair":true},{"id":"53316","name":"Des Ormeaux / Sherbrooke","lat":45.604378,"lng":-73.529777,"code":"53316","wheelchair":true},{"id":"53351","name":"Des Ormeaux / de Marseille","lat":45.603348,"lng":-73.525851,"code":"53351","wheelchair":true},{"id":"53352","name":"Des Ormeaux / de Marseille","lat":45.603326,"lng":-73.526187,"code":"53352","wheelchair":true},{"id":"61229","name":"Georges-V / Hochelaga","lat":45.612172,"lng":-73.514997,"code":"61229","wheelchair":true},{"id":"54483","name":"Georges-V / Sainte-Claire","lat":45.612818,"lng":-73.518777,"code":"54483","wheelchair":true},{"id":"54482","name":"Georges-V / Sainte-Claire","lat":45.612866,"lng":-73.518399,"code":"54482","wheelchair":false},{"id":"53413","name":"Hochelaga / Aubry","lat":45.607971,"lng":-73.516478,"code":"53413","wheelchair":true},{"id":"53414","name":"Hochelaga / Aubry","lat":45.607734,"lng":-73.516337,"code":"53414","wheelchair":true},{"id":"53386","name":"Hochelaga / Des Ormeaux","lat":45.601633,"lng":-73.519842,"code":"53386","wheelchair":true},{"id":"53415","name":"Hochelaga / Fletcher","lat":45.609115,"lng":-73.515926,"code":"53415","wheelchair":true},{"id":"53416","name":"Hochelaga / Fletcher","lat":45.608871,"lng":-73.515792,"code":"53416","wheelchair":true},{"id":"53422","name":"Hochelaga / Hector","lat":45.610756,"lng":-73.515135,"code":"53422","wheelchair":true},{"id":"53423","name":"Hochelaga / Hector","lat":45.610491,"lng":-73.515011,"code":"53423","wheelchair":true},{"id":"53394","name":"Hochelaga / Joffre","lat":45.602937,"lng":-73.519062,"code":"53394","wheelchair":true},{"id":"53395","name":"Hochelaga / Joffre","lat":45.602675,"lng":-73.519019,"code":"53395","wheelchair":true},{"id":"53400","name":"Hochelaga / Pierre-Bernard","lat":45.604331,"lng":-73.518244,"code":"53400","wheelchair":true},{"id":"53401","name":"Hochelaga / Pierre-Bernard","lat":45.604056,"lng":-73.518149,"code":"53401","wheelchair":true},{"id":"53408","name":"Hochelaga / Taillon","lat":45.606531,"lng":-73.51714,"code":"53408","wheelchair":true},{"id":"53409","name":"Hochelaga / Taillon","lat":45.606238,"lng":-73.51702,"code":"53409","wheelchair":true},{"id":"53301","name":"Sherbrooke / Baldwin","lat":45.603383,"lng":-73.531081,"code":"53301","wheelchair":true},{"id":"53302","name":"Sherbrooke / Baldwin","lat":45.603067,"lng":-73.530943,"code":"53302","wheelchair":true},{"id":"53350","name":"Sherbrooke / Hector","lat":45.612349,"lng":-73.525661,"code":"53350","wheelchair":true},{"id":"53349","name":"Sherbrooke / Hector","lat":45.612632,"lng":-73.525826,"code":"53349","wheelchair":true},{"id":"53241","name":"Sherbrooke / Lepailleur","lat":45.594984,"lng":-73.536116,"code":"53241","wheelchair":true},{"id":"53242","name":"Sherbrooke / Lepailleur","lat":45.595202,"lng":-73.535636,"code":"53242","wheelchair":true},{"id":"53278","name":"Sherbrooke / Li\u00e9bert","lat":45.599054,"lng":-73.533667,"code":"53278","wheelchair":true},{"id":"53279","name":"Sherbrooke / Li\u00e9bert","lat":45.59862,"lng":-73.533602,"code":"53279","wheelchair":true},{"id":"53207","name":"Sherbrooke / Place Versailles","lat":45.590589,"lng":-73.538362,"code":"53207","wheelchair":true},{"id":"53287","name":"Sherbrooke / Saint-Donat","lat":45.601134,"lng":-73.532423,"code":"53287","wheelchair":true},{"id":"53289","name":"Sherbrooke / Saint-Donat","lat":45.60083,"lng":-73.532279,"code":"53289","wheelchair":true},{"id":"53206","name":"Sherbrooke / du Trianon","lat":45.590554,"lng":-73.53872,"code":"53206","wheelchair":true},{"id":"53252","name":"Station Honor\u00e9-Beaugrand","lat":45.596793,"lng":-73.53502,"code":"53252","wheelchair":true},{"id":"54257","name":"Station Honor\u00e9-Beaugrand","lat":45.596943,"lng":-73.534563,"code":"54257","wheelchair":true},{"id":"61230","name":"Station Radisson (Des Groseilliers / Sherbrooke)","lat":45.5891,"lng":-73.540077,"code":"61230","wheelchair":true}],"avgHeadwayMin":2.0}