{"id":"19","name":"Chabanel / March\u00e9 Central","mode":"bus","color":"#009EE0","shapes":[{"headsign":"Est","points":[[45.533611,-73.661143],[45.533299,-73.65719],[45.533457,-73.657078],[45.534398,-73.656412],[45.535329,-73.655952],[45.53604,-73.655865],[45.536575,-73.655624],[45.537331,-73.655164],[45.538891,-73.654248],[45.540062,-73.653572],[45.541141,-73.65295],[45.541295,-73.653678],[45.542152,-73.656692],[45.54547,-73.654754],[45.544499,-73.651338],[45.543545,-73.648097],[45.542656,-73.645093],[45.54227,-73.643782],[45.541949,-73.642724],[45.541536,-73.642326],[45.541311,-73.642133],[45.541256,-73.642028],[45.5412,-73.641562],[45.541911,-73.641084],[45.542368,-73.640787],[45.54288,-73.640468],[45.543977,-73.639613],[45.545266,-73.638543],[45.545641,-73.638215]]},{"headsign":"Ouest","points":[[45.545904,-73.638712],[45.544842,-73.639632],[45.543786,-73.640515],[45.542536,-73.641359],[45.542422,-73.641508],[45.542293,-73.641956],[45.542108,-73.642597],[45.542427,-73.643702],[45.542769,-73.64495],[45.543547,-73.647905],[45.544505,-73.65116],[45.545528,-73.654772],[45.545145,-73.655],[45.542126,-73.656736],[45.541152,-73.653311],[45.540111,-73.653761],[45.539525,-73.654105],[45.537535,-73.655277],[45.5364,-73.655929],[45.535693,-73.656067],[45.535193,-73.656181],[45.533662,-73.657086],[45.532529,-73.657683],[45.530897,-73.658654],[45.53186,-73.662],[45.533611,-73.661143]]},{"headsign":"Ouest","points":[[45.545904,-73.638712],[45.544842,-73.639632],[45.543786,-73.640515],[45.542536,-73.641359],[45.542422,-73.641508],[45.542293,-73.641956],[45.542108,-73.642597],[45.542427,-73.643702],[45.542769,-73.64495],[45.543547,-73.647905],[45.544505,-73.65116],[45.545528,-73.654772],[45.545145,-73.655],[45.542126,-73.656736],[45.541152,-73.653311],[45.540111,-73.653761],[45.539525,-73.654105],[45.537535,-73.655277],[45.5364,-73.655929],[45.535693,-73.656067],[45.535193,-73.656181],[45.533662,-73.657086],[45.532529,-73.657683],[45.530897,-73.658654],[45.53186,-73.662],[45.534331,-73.660717],[45.533298,-73.657167],[45.533602,-73.656899],[45.533797,-73.656779]]},{"headsign":"Est","points":[[45.533797,-73.656779],[45.535274,-73.655965],[45.535799,-73.655903],[45.536342,-73.655752],[45.53733,-73.655164],[45.538215,-73.654643],[45.539467,-73.653904],[45.541124,-73.652948],[45.541139,-73.653132],[45.542057,-73.656357],[45.54512,-73.654959],[45.544499,-73.65134],[45.544402,-73.651024],[45.542783,-73.645378],[45.542583,-73.644873],[45.541983,-73.642824],[45.541865,-73.642554],[45.541402,-73.642211],[45.541303,-73.642123],[45.5412,-73.641693],[45.541215,-73.641527],[45.542197,-73.640902],[45.54279,-73.640524],[45.543976,-73.639614],[45.544599,-73.639105],[45.545641,-73.638215]]}],"stops":[{"id":"61021","name":"Chabanel / Charles-De La Tour","lat":45.531376,"lng":-73.658434,"code":"61021","wheelchair":true},{"id":"54349","name":"Chabanel / Jeanne-Mance","lat":45.539341,"lng":-73.653944,"code":"54349","wheelchair":true},{"id":"54348","name":"Chabanel / Jeanne-Mance","lat":45.539664,"lng":-73.654037,"code":"54348","wheelchair":true},{"id":"50426","name":"Chabanel / de l'Acadie","lat":45.53379,"lng":-73.656754,"code":"50426","wheelchair":true},{"id":"54359","name":"Chabanel / du March\u00e9-Central","lat":45.534602,"lng":-73.656588,"code":"54359","wheelchair":true},{"id":"50361","name":"Charles-De La Tour / de Louvain","lat":45.531899,"lng":-73.661976,"code":"50361","wheelchair":true},{"id":"50720","name":"Cr\u00e9mazie / Casgrain","lat":45.542774,"lng":-73.640473,"code":"50720","wheelchair":true},{"id":"53947","name":"Cr\u00e9mazie / De Gasp\u00e9","lat":45.543802,"lng":-73.640554,"code":"53947","wheelchair":true},{"id":"50734","name":"Cr\u00e9mazie / Henri-Julien","lat":45.543969,"lng":-73.639595,"code":"50734","wheelchair":true},{"id":"50671","name":"Cr\u00e9mazie / Saint-Laurent","lat":45.541899,"lng":-73.641045,"code":"50671","wheelchair":true},{"id":"50669","name":"Cr\u00e9mazie / Saint-Laurent","lat":45.542561,"lng":-73.641436,"code":"50669","wheelchair":true},{"id":"50448","name":"Gare Chabanel","lat":45.537321,"lng":-73.655132,"code":"50448","wheelchair":true},{"id":"50450","name":"Gare Chabanel","lat":45.537185,"lng":-73.655508,"code":"50450","wheelchair":true},{"id":"50519","name":"Saint-Laurent / Chabanel","lat":45.544433,"lng":-73.651376,"code":"50519","wheelchair":true},{"id":"50518","name":"Saint-Laurent / Chabanel","lat":45.544455,"lng":-73.650826,"code":"50518","wheelchair":true},{"id":"50620","name":"Saint-Laurent / De Beauharnois","lat":45.542606,"lng":-73.645029,"code":"50620","wheelchair":true},{"id":"50619","name":"Saint-Laurent / De Beauharnois","lat":45.542712,"lng":-73.64464,"code":"50619","wheelchair":true},{"id":"50564","name":"Saint-Laurent / Legendre","lat":45.543497,"lng":-73.648125,"code":"50564","wheelchair":true},{"id":"50562","name":"Saint-Laurent / Legendre","lat":45.543558,"lng":-73.647716,"code":"50562","wheelchair":true},{"id":"50794","name":"Station Cr\u00e9mazie Nord (Cr\u00e9mazie / Lajeunesse)","lat":45.54592,"lng":-73.638751,"code":"50794","wheelchair":true},{"id":"50769","name":"Station Cr\u00e9mazie Sud (Cr\u00e9mazie / Berri)","lat":45.545619,"lng":-73.638165,"code":"50769","wheelchair":true},{"id":"50456","name":"de Louvain / Saint-Laurent","lat":45.545101,"lng":-73.654892,"code":"50456","wheelchair":true},{"id":"50458","name":"de Louvain / Saint-Laurent","lat":45.545161,"lng":-73.655051,"code":"50458","wheelchair":true},{"id":"50379","name":"de Louvain / de l'Acadie","lat":45.533597,"lng":-73.661093,"code":"50379","wheelchair":true},{"id":"54352","name":"de l'Esplanade / Chabanel","lat":45.541352,"lng":-73.653646,"code":"54352","wheelchair":true},{"id":"54344","name":"de l'Esplanade / Chabanel","lat":45.541117,"lng":-73.653332,"code":"54344","wheelchair":true},{"id":"54353","name":"de l'Esplanade / de Louvain","lat":45.542111,"lng":-73.656325,"code":"54353","wheelchair":true},{"id":"54347","name":"de l'Esplanade / de Louvain","lat":45.541933,"lng":-73.656311,"code":"54347","wheelchair":true}],"avgHeadwayMin":2.0}