{"id":"67","name":"Saint-Michel","mode":"bus","color":"#781B7D","shapes":[{"headsign":"Nord","points":[[45.54693,-73.5514],[45.54556,-73.552234],[45.545918,-73.555846],[45.546257,-73.557018],[45.547017,-73.559549],[45.547746,-73.561703],[45.548614,-73.564639],[45.549329,-73.567149],[45.54952,-73.56799],[45.54957,-73.568299],[45.550963,-73.572982],[45.551932,-73.576243],[45.552668,-73.578664],[45.55307,-73.579933],[45.553468,-73.580798],[45.553878,-73.582264],[45.554311,-73.583713],[45.555092,-73.586263],[45.557155,-73.59318],[45.557434,-73.593925],[45.558457,-73.597267],[45.558905,-73.598292],[45.559902,-73.600556],[45.560629,-73.602202],[45.561232,-73.603554],[45.561796,-73.604804],[45.562257,-73.605704],[45.562747,-73.606314],[45.562957,-73.606887],[45.56303,-73.607356],[45.563117,-73.607831],[45.563772,-73.609309],[45.564409,-73.610727],[45.56514,-73.612374],[45.565774,-73.613817],[45.566501,-73.615472],[45.567821,-73.618459],[45.56915,-73.621486],[45.570352,-73.624238],[45.571676,-73.627232],[45.572997,-73.630229],[45.574078,-73.632718],[45.574389,-73.633396],[45.575079,-73.634329],[45.575432,-73.634966],[45.575972,-73.636274],[45.576582,-73.637736],[45.577102,-73.639033],[45.577629,-73.640194],[45.578275,-73.641193],[45.579694,-73.643454],[45.581437,-73.646212],[45.583942,-73.650178],[45.584425,-73.650943]]},{"headsign":"Sud","points":[[45.584425,-73.650944],[45.584834,-73.651699],[45.584664,-73.651743],[45.583766,-73.650281],[45.581392,-73.646488],[45.580219,-73.644608],[45.5796,-73.643645],[45.577759,-73.640732],[45.577642,-73.640552],[45.577325,-73.639969],[45.575889,-73.636481],[45.575298,-73.635084],[45.575163,-73.634829],[45.574646,-73.634103],[45.574175,-73.633365],[45.572991,-73.630641],[45.571599,-73.627515],[45.569049,-73.621679],[45.567676,-73.61859],[45.566407,-73.615715],[45.56511,-73.612766],[45.564273,-73.610858],[45.563728,-73.609619],[45.563031,-73.60807],[45.562583,-73.607662],[45.5624,-73.60744],[45.562099,-73.6068],[45.562042,-73.606389],[45.562016,-73.605907],[45.561866,-73.605369],[45.561211,-73.603959],[45.560493,-73.602319],[45.559837,-73.600832],[45.559324,-73.599686],[45.55876,-73.598409],[45.557744,-73.595495],[45.557345,-73.594221],[45.557105,-73.593207],[45.555097,-73.586478],[45.553945,-73.582684],[45.553463,-73.581064],[45.553221,-73.58063],[45.55292,-73.579766],[45.552656,-73.578831],[45.551882,-73.576273],[45.550957,-73.573159],[45.549603,-73.568608],[45.549504,-73.568267],[45.549187,-73.567224],[45.548506,-73.564869],[45.547023,-73.559933],[45.547001,-73.559567],[45.547641,-73.559171],[45.549618,-73.557964],[45.551154,-73.557007],[45.550562,-73.554996],[45.549761,-73.555043],[45.54763,-73.550981],[45.546932,-73.551398]]}],"stops":[{"id":"52815","name":"Davidson / Rachel","lat":45.547016,"lng":-73.559429,"code":"52815","wheelchair":true},{"id":"52922","name":"Davidson / Sherbrooke","lat":45.545944,"lng":-73.55583,"code":"52922","wheelchair":true},{"id":"53011","name":"Hochelaga / Davidson","lat":45.54512,"lng":-73.552587,"code":"53011","wheelchair":true},{"id":"53053","name":"Nicolet / Hochelaga","lat":45.548446,"lng":-73.550759,"code":"53053","wheelchair":true},{"id":"61046","name":"Rachel / Cuvillier","lat":45.547521,"lng":-73.55919,"code":"61046","wheelchair":false},{"id":"52865","name":"Rachel / De Chambly","lat":45.549604,"lng":-73.557915,"code":"52865","wheelchair":true},{"id":"51943","name":"Saint-Michel / Beaubien","lat":45.555084,"lng":-73.586049,"code":"51943","wheelchair":true},{"id":"51945","name":"Saint-Michel / Beaubien","lat":45.555042,"lng":-73.58651,"code":"51945","wheelchair":true},{"id":"60617","name":"Saint-Michel / B\u00e9lair","lat":45.557813,"lng":-73.595068,"code":"60617","wheelchair":true},{"id":"54364","name":"Saint-Michel / B\u00e9lair","lat":45.557791,"lng":-73.59571,"code":"54364","wheelchair":true},{"id":"51743","name":"Saint-Michel / B\u00e9langer","lat":45.55739,"lng":-73.593711,"code":"51743","wheelchair":true},{"id":"51745","name":"Saint-Michel / B\u00e9langer","lat":45.557335,"lng":-73.594228,"code":"51745","wheelchair":true},{"id":"50879","name":"Saint-Michel / Champdor\u00e9","lat":45.574097,"lng":-73.6327,"code":"50879","wheelchair":true},{"id":"50880","name":"Saint-Michel / Champdor\u00e9","lat":45.573839,"lng":-73.632645,"code":"50880","wheelchair":true},{"id":"50814","name":"Saint-Michel / Charland","lat":45.57547,"lng":-73.635011,"code":"50814","wheelchair":true},{"id":"50815","name":"Saint-Michel / Charland","lat":45.575242,"lng":-73.635028,"code":"50815","wheelchair":true},{"id":"51469","name":"Saint-Michel / Cr\u00e9mazie","lat":45.56292,"lng":-73.606652,"code":"51469","wheelchair":true},{"id":"51471","name":"Saint-Michel / Cr\u00e9mazie","lat":45.562448,"lng":-73.607556,"code":"51471","wheelchair":true},{"id":"51473","name":"Saint-Michel / Cr\u00e9mazie","lat":45.562074,"lng":-73.606817,"code":"51473","wheelchair":true},{"id":"51360","name":"Saint-Michel / D'H\u00e9relle","lat":45.565093,"lng":-73.612781,"code":"51360","wheelchair":true},{"id":"51359","name":"Saint-Michel / D'H\u00e9relle est","lat":45.564491,"lng":-73.610884,"code":"51359","wheelchair":true},{"id":"53968","name":"Saint-Michel / D'H\u00e9relle ouest","lat":45.565145,"lng":-73.612369,"code":"53968","wheelchair":true},{"id":"52239","name":"Saint-Michel / Dandurand","lat":45.551945,"lng":-73.576085,"code":"52239","wheelchair":true},{"id":"52240","name":"Saint-Michel / Dandurand","lat":45.551878,"lng":-73.576465,"code":"52240","wheelchair":true},{"id":"51142","name":"Saint-Michel / Denis-Papin","lat":45.56911,"lng":-73.621368,"code":"51142","wheelchair":true},{"id":"51143","name":"Saint-Michel / Denis-Papin","lat":45.569022,"lng":-73.621702,"code":"51143","wheelchair":true},{"id":"51276","name":"Saint-Michel / Deville","lat":45.566438,"lng":-73.615298,"code":"51276","wheelchair":true},{"id":"51277","name":"Saint-Michel / Deville","lat":45.566392,"lng":-73.615728,"code":"51277","wheelchair":true},{"id":"55057","name":"Saint-Michel / Fleury","lat":45.579543,"lng":-73.643171,"code":"55057","wheelchair":true},{"id":"55059","name":"Saint-Michel / Fleury","lat":45.579759,"lng":-73.643934,"code":"55059","wheelchair":true},{"id":"55333","name":"Saint-Michel / Henri-Bourassa","lat":45.583717,"lng":-73.649799,"code":"55333","wheelchair":true},{"id":"55334","name":"Saint-Michel / Henri-Bourassa","lat":45.584434,"lng":-73.650933,"code":"55334","wheelchair":true},{"id":"60505","name":"Saint-Michel / Henri-Bourassa","lat":45.583953,"lng":-73.650596,"code":"60505","wheelchair":true},{"id":"55335","name":"Saint-Michel / Henri-Bourassa","lat":45.583451,"lng":-73.649796,"code":"55335","wheelchair":true},{"id":"52158","name":"Saint-Michel / Holt","lat":45.552658,"lng":-73.578485,"code":"52158","wheelchair":true},{"id":"52159","name":"Saint-Michel / Holt","lat":45.552593,"lng":-73.578868,"code":"52159","wheelchair":true},{"id":"51392","name":"Saint-Michel / Jarry","lat":45.56379,"lng":-73.609293,"code":"51392","wheelchair":true},{"id":"51394","name":"Saint-Michel / Jarry","lat":45.563801,"lng":-73.609845,"code":"51394","wheelchair":true},{"id":"51630","name":"Saint-Michel / Jean-Talon","lat":45.558849,"lng":-73.598117,"code":"51630","wheelchair":true},{"id":"51632","name":"Saint-Michel / Jean-Talon","lat":45.55889,"lng":-73.598745,"code":"51632","wheelchair":true},{"id":"51557","name":"Saint-Michel / L.-O.-David","lat":45.560332,"lng":-73.602006,"code":"51557","wheelchair":true},{"id":"52431","name":"Saint-Michel / Laurier","lat":45.550222,"lng":-73.570293,"code":"52431","wheelchair":true},{"id":"52432","name":"Saint-Michel / Laurier","lat":45.550151,"lng":-73.570656,"code":"52432","wheelchair":true},{"id":"51000","name":"Saint-Michel / Legendre","lat":45.571691,"lng":-73.627218,"code":"51000","wheelchair":true},{"id":"51001","name":"Saint-Michel / Legendre","lat":45.571652,"lng":-73.627664,"code":"51001","wheelchair":true},{"id":"52347","name":"Saint-Michel / Masson","lat":45.551012,"lng":-73.572951,"code":"52347","wheelchair":true},{"id":"52349","name":"Saint-Michel / Masson","lat":45.550947,"lng":-73.573333,"code":"52349","wheelchair":true},{"id":"55078","name":"Saint-Michel / Mont-Joli","lat":45.5777,"lng":-73.640251,"code":"55078","wheelchair":true},{"id":"55079","name":"Saint-Michel / Mont-Joli","lat":45.577711,"lng":-73.640691,"code":"55079","wheelchair":true},{"id":"55046","name":"Saint-Michel / Prieur","lat":45.581373,"lng":-73.646077,"code":"55046","wheelchair":true},{"id":"55047","name":"Saint-Michel / Prieur","lat":45.581379,"lng":-73.646505,"code":"55047","wheelchair":true},{"id":"54180","name":"Saint-Michel / Robert","lat":45.567739,"lng":-73.618257,"code":"54180","wheelchair":true},{"id":"51224","name":"Saint-Michel / Robert","lat":45.567708,"lng":-73.618722,"code":"51224","wheelchair":true},{"id":"52107","name":"Saint-Michel / Rosemont","lat":45.553227,"lng":-73.580146,"code":"52107","wheelchair":true},{"id":"52109","name":"Saint-Michel / Rosemont","lat":45.553206,"lng":-73.580646,"code":"52109","wheelchair":true},{"id":"52520","name":"Saint-Michel / Saint-Joseph","lat":45.549551,"lng":-73.567988,"code":"52520","wheelchair":true},{"id":"52522","name":"Saint-Michel / Saint-Joseph","lat":45.549553,"lng":-73.568637,"code":"52522","wheelchair":true},{"id":"51838","name":"Saint-Michel / Saint-Zotique","lat":45.556211,"lng":-73.589813,"code":"51838","wheelchair":true},{"id":"51839","name":"Saint-Michel / Saint-Zotique","lat":45.556193,"lng":-73.59036,"code":"51839","wheelchair":true},{"id":"50732","name":"Saint-Michel / Sauv\u00e9","lat":45.576816,"lng":-73.638249,"code":"50732","wheelchair":true},{"id":"50733","name":"Saint-Michel / Sauv\u00e9","lat":45.576833,"lng":-73.638828,"code":"50733","wheelchair":true},{"id":"51517","name":"Saint-Michel / Villeray","lat":45.561245,"lng":-73.603541,"code":"51517","wheelchair":true},{"id":"51519","name":"Saint-Michel / Villeray","lat":45.561266,"lng":-73.604116,"code":"51519","wheelchair":true},{"id":"53825","name":"Saint-Michel / William-Tremblay","lat":45.547751,"lng":-73.5617,"code":"53825","wheelchair":true},{"id":"53826","name":"Saint-Michel / William-Tremblay","lat":45.54767,"lng":-73.562118,"code":"53826","wheelchair":true},{"id":"52046","name":"Saint-Michel / de Bellechasse","lat":45.55393,"lng":-73.582233,"code":"52046","wheelchair":true},{"id":"52047","name":"Saint-Michel / de Bellechasse","lat":45.553894,"lng":-73.582713,"code":"52047","wheelchair":true},{"id":"50931","name":"Saint-Michel / de Louvain","lat":45.573008,"lng":-73.630218,"code":"50931","wheelchair":true},{"id":"50932","name":"Saint-Michel / de Louvain","lat":45.572968,"lng":-73.63066,"code":"50932","wheelchair":true},{"id":"52651","name":"Saint-Michel / du Mont-Royal","lat":45.548633,"lng":-73.564627,"code":"52651","wheelchair":true},{"id":"52628","name":"Saint-Michel / du Mont-Royal","lat":45.548558,"lng":-73.565064,"code":"52628","wheelchair":true},{"id":"51080","name":"Saint-Michel / \u00c9mile-Journault","lat":45.570369,"lng":-73.624222,"code":"51080","wheelchair":true},{"id":"51079","name":"Saint-Michel / \u00c9mile-Journault","lat":45.570336,"lng":-73.624686,"code":"51079","wheelchair":true},{"id":"53036","name":"Station Joliette (Hochelaga / Joliette)","lat":45.546951,"lng":-73.551472,"code":"53036","wheelchair":true},{"id":"51606","name":"Station Saint-Michel (Saint-Michel / Everett)","lat":45.559939,"lng":-73.600522,"code":"51606","wheelchair":true},{"id":"51605","name":"Station Saint-Michel (Saint-Michel / Shaughnessy)","lat":45.55929,"lng":-73.599717,"code":"51605","wheelchair":true},{"id":"52952","name":"Valois / Sherbrooke","lat":45.550586,"lng":-73.555218,"code":"52952","wheelchair":true}],"avgHeadwayMin":1.0}